{
  "type": "FeatureCollection",
  "generator": "overpass-turbo",
  "copyright": "The data included in this document is from www.openstreetmap.org. The data is made available under ODbL.",
  "timestamp": "2025-09-15T16:21:41Z",
  "features": [
    {
      "type": "Feature",
      "properties": {
        "@id": "node/245634482",
        "name": "Macharla",
        "name:kn": "ಮಾಚರ್ಲ",
        "name:te": "మాచర్ల",
        "place": "village",
        "postal_code": "509129"
      },
      "geometry": {
        "type": "Point",
        "coordinates": [
          77.5450179,
          16.0841931
        ]
      },
      "id": "node/245634482"
    },
    {
      "type": "Feature",
      "properties": {
        "@id": "node/245635258",
        "name": "Vattavarlapally",
        "place": "village"
      },
      "geometry": {
        "type": "Point",
        "coordinates": [
          78.7973671,
          16.2475648
        ]
      },
      "id": "node/245635258"
    },
    {
      "type": "Feature",
      "properties": {
        "@id": "node/245635544",
        "name": "Atmakur",
        "place": "village",
        "population": "1000",
        "postal_code": "509131",
        "wikidata": "Q4817045",
        "wikipedia": "en:Atmakur, Wanaparthy"
      },
      "geometry": {
        "type": "Point",
        "coordinates": [
          77.805459,
          16.3373241
        ]
      },
      "id": "node/245635544"
    },
    {
      "type": "Feature",
      "properties": {
        "@id": "node/245635800",
        "name": "Mannanur",
        "place": "village",
        "postal_code": "509241",
        "wikidata": "Q13005535"
      },
      "geometry": {
        "type": "Point",
        "coordinates": [
          78.7583353,
          16.3725178
        ]
      },
      "id": "node/245635800"
    },
    {
      "type": "Feature",
      "properties": {
        "@id": "node/245636139",
        "name": "Vankeshwaram",
        "place": "village"
      },
      "geometry": {
        "type": "Point",
        "coordinates": [
          78.9101503,
          16.4310964
        ]
      },
      "id": "node/245636139"
    },
    {
      "type": "Feature",
      "properties": {
        "@id": "node/245636273",
        "alt_name": "Maganura",
        "name": "Maganoor",
        "name:kn": "ಮಾಗನೂರು",
        "name:te": "మాగనూరు",
        "place": "village",
        "population": "1000"
      },
      "geometry": {
        "type": "Point",
        "coordinates": [
          77.4297609,
          16.4591417
        ]
      },
      "id": "node/245636273"
    },
    {
      "type": "Feature",
      "properties": {
        "@id": "node/245636632",
        "name": "Raghupatipeta",
        "place": "village"
      },
      "geometry": {
        "type": "Point",
        "coordinates": [
          78.4820042,
          16.5129928
        ]
      },
      "id": "node/245636632"
    },
    {
      "type": "Feature",
      "properties": {
        "@id": "node/245637515",
        "name": "Ukur",
        "name:kn": "ಊತ್ಕುರ",
        "name:te": "ఊత్కుర",
        "place": "village",
        "postal_code": "509311"
      },
      "geometry": {
        "type": "Point",
        "coordinates": [
          77.5133456,
          16.6502213
        ]
      },
      "id": "node/245637515"
    },
    {
      "type": "Feature",
      "properties": {
        "@id": "node/245637566",
        "name": "Dhanwada",
        "name:te": "ధన్వాడ",
        "place": "village",
        "postal_code": "509205",
        "wikidata": "Q5269047"
      },
      "geometry": {
        "type": "Point",
        "coordinates": [
          77.6558617,
          16.6385558
        ]
      },
      "id": "node/245637566"
    },
    {
      "type": "Feature",
      "properties": {
        "@id": "node/245637873",
        "name": "Bhoothpur",
        "name:te": "భూత్పూర్",
        "place": "village",
        "postal_code": "509382"
      },
      "geometry": {
        "type": "Point",
        "coordinates": [
          78.0518353,
          16.7000455
        ]
      },
      "id": "node/245637873"
    },
    {
      "type": "Feature",
      "properties": {
        "@id": "node/245638205",
        "name": "Pedda Voora",
        "place": "village",
        "postal_code": "508266",
        "wikidata": "Q3424116"
      },
      "geometry": {
        "type": "Point",
        "coordinates": [
          79.2082537,
          16.7291427
        ]
      },
      "id": "node/245638205"
    },
    {
      "type": "Feature",
      "properties": {
        "@id": "node/245638381",
        "name": "Gudipalli",
        "place": "village",
        "postal_code": "508257"
      },
      "geometry": {
        "type": "Point",
        "coordinates": [
          79.0796085,
          16.7628613
        ]
      },
      "id": "node/245638381"
    },
    {
      "type": "Feature",
      "properties": {
        "@id": "node/245638546",
        "name": "Hanwada",
        "place": "village",
        "postal_code": "509334"
      },
      "geometry": {
        "type": "Point",
        "coordinates": [
          77.919934,
          16.8112623
        ]
      },
      "id": "node/245638546"
    },
    {
      "type": "Feature",
      "properties": {
        "@id": "node/245638616",
        "name": "Nidamanoor",
        "place": "village",
        "postal_code": "508278"
      },
      "geometry": {
        "type": "Point",
        "coordinates": [
          79.3651133,
          16.8215148
        ]
      },
      "id": "node/245638616"
    },
    {
      "type": "Feature",
      "properties": {
        "@id": "node/245638788",
        "name": "Koppole",
        "place": "village",
        "postal_code": "508256"
      },
      "geometry": {
        "type": "Point",
        "coordinates": [
          79.1513754,
          16.8992993
        ]
      },
      "id": "node/245638788"
    },
    {
      "type": "Feature",
      "properties": {
        "@id": "node/245638835",
        "name": "Rajapur",
        "name:te": "రాజాపూర్",
        "place": "village",
        "postal_code": "509242"
      },
      "geometry": {
        "type": "Point",
        "coordinates": [
          78.1611086,
          16.8647947
        ]
      },
      "id": "node/245638835"
    },
    {
      "type": "Feature",
      "properties": {
        "@id": "node/245638870",
        "name": "Madduru",
        "name:kn": "ಮದ್ದುರು",
        "name:te": "మద్దురు",
        "place": "village",
        "postal_code": "509411",
        "wikidata": "Q3418789"
      },
      "geometry": {
        "type": "Point",
        "coordinates": [
          77.6154832,
          16.8600838
        ]
      },
      "id": "node/245638870"
    },
    {
      "type": "Feature",
      "properties": {
        "@id": "node/245639030",
        "name": "Hanumanpalli",
        "place": "village"
      },
      "geometry": {
        "type": "Point",
        "coordinates": [
          77.6849647,
          16.942094
        ]
      },
      "id": "node/245639030"
    },
    {
      "type": "Feature",
      "properties": {
        "@id": "node/245639048",
        "name": "Balanagar",
        "name:te": "బాలానగర్",
        "place": "village",
        "postal_code": "509202",
        "wikidata": "Q4849938",
        "wikipedia": "en:Balanagar, Mahbubnagar district"
      },
      "geometry": {
        "type": "Point",
        "coordinates": [
          78.1835173,
          16.9496097
        ]
      },
      "id": "node/245639048"
    },
    {
      "type": "Feature",
      "properties": {
        "@id": "node/245639078",
        "name": "Kasthala",
        "place": "village",
        "postal_code": "508255"
      },
      "geometry": {
        "type": "Point",
        "coordinates": [
          79.076072,
          16.9517694
        ]
      },
      "id": "node/245639078"
    },
    {
      "type": "Feature",
      "properties": {
        "@id": "node/245639086",
        "name": "Kanagal",
        "place": "village",
        "postal_code": "508002",
        "wikidata": "Q6360217"
      },
      "geometry": {
        "type": "Point",
        "coordinates": [
          79.201683,
          16.9500008
        ]
      },
      "id": "node/245639086"
    },
    {
      "type": "Feature",
      "properties": {
        "@id": "node/245639298",
        "name": "Kosgi",
        "name:kn": "ಕೋಸ್ಗಿ",
        "name:te": "కోస్గి",
        "place": "village",
        "postal_code": "509339"
      },
      "geometry": {
        "type": "Point",
        "coordinates": [
          77.7164865,
          16.9884481
        ]
      },
      "id": "node/245639298"
    },
    {
      "type": "Feature",
      "properties": {
        "@id": "node/245639348",
        "name": "Bonakal",
        "name:te": "బోనకల్లు",
        "place": "village",
        "wikidata": "Q3430122"
      },
      "geometry": {
        "type": "Point",
        "coordinates": [
          80.2663333,
          17.0277997
        ]
      },
      "id": "node/245639348"
    },
    {
      "type": "Feature",
      "properties": {
        "@id": "node/245639350",
        "name": "Tipparthy",
        "name:te": "తిప్పర్తి",
        "place": "village",
        "postal_code": "508247",
        "wikidata": "Q3420733"
      },
      "geometry": {
        "type": "Point",
        "coordinates": [
          79.4164082,
          17.0156363
        ]
      },
      "id": "node/245639350"
    },
    {
      "type": "Feature",
      "properties": {
        "@id": "node/245639412",
        "name": "Sangam",
        "place": "village",
        "postal_code": "509216"
      },
      "geometry": {
        "type": "Point",
        "coordinates": [
          78.3023127,
          17.0267684
        ]
      },
      "id": "node/245639412"
    },
    {
      "type": "Feature",
      "properties": {
        "@id": "node/245639447",
        "name": "Yacharam",
        "name:te": "యాచారం",
        "place": "village",
        "postal_code": "501509",
        "wikidata": "Q8046407"
      },
      "geometry": {
        "type": "Point",
        "coordinates": [
          78.6646143,
          17.0446138
        ]
      },
      "id": "node/245639447"
    },
    {
      "type": "Feature",
      "properties": {
        "@id": "node/245639580",
        "alt_name": "Mungod",
        "name": "Munugode",
        "name:new": "मुनुगोडु मण्डल, नालगोंडा जिल्ला",
        "name:te": "మునుగోడు",
        "place": "village",
        "postal_code": "508244",
        "wikidata": "Q3420777",
        "wikipedia": "en:Munugode"
      },
      "geometry": {
        "type": "Point",
        "coordinates": [
          79.0766713,
          17.0795326
        ]
      },
      "id": "node/245639580"
    },
    {
      "type": "Feature",
      "properties": {
        "@id": "node/245639585",
        "name": "Husnabad",
        "name:kn": "ಹುಸ್ನಬಾದ್",
        "name:te": "హుస్నాబాద్",
        "place": "village",
        "postal_code": "509350"
      },
      "geometry": {
        "type": "Point",
        "coordinates": [
          77.6525544,
          17.0542559
        ]
      },
      "id": "node/245639585"
    },
    {
      "type": "Feature",
      "properties": {
        "@id": "node/245639645",
        "name": "Nela Kondapalli",
        "place": "village",
        "population": "7340",
        "postal_code": "507160",
        "wikidata": "Q3430011"
      },
      "geometry": {
        "type": "Point",
        "coordinates": [
          80.0507535,
          17.1004428
        ]
      },
      "id": "node/245639645"
    },
    {
      "type": "Feature",
      "properties": {
        "@id": "node/245639679",
        "name": "Kodangal",
        "name:kn": "ಕೊಡಂಗಲ್",
        "name:te": "కొడంగల్",
        "place": "village",
        "population": "5000",
        "postal_code": "509338",
        "wikidata": "Q3413545"
      },
      "geometry": {
        "type": "Point",
        "coordinates": [
          77.6286928,
          17.1059881
        ]
      },
      "id": "node/245639679"
    },
    {
      "type": "Feature",
      "properties": {
        "@id": "node/245639706",
        "name": "Narayanpur",
        "name:te": "నారాయణపూర్",
        "place": "village",
        "postal_code": "508253",
        "wikidata": "Q6965536",
        "wikipedia": "en:Narayanapur, Nalgonda"
      },
      "geometry": {
        "type": "Point",
        "coordinates": [
          78.8800765,
          17.1622779
        ]
      },
      "id": "node/245639706"
    },
    {
      "type": "Feature",
      "properties": {
        "@id": "node/245639844",
        "name": "Tekmatla",
        "place": "village",
        "population": "5000"
      },
      "geometry": {
        "type": "Point",
        "coordinates": [
          79.5461414,
          17.1659247
        ]
      },
      "id": "node/245639844"
    },
    {
      "type": "Feature",
      "properties": {
        "@id": "node/245639860",
        "alt_name": "Moteh",
        "alt_name1": "Mothe",
        "name": "Mothey",
        "place": "village",
        "postal_code": "508337",
        "wikidata": "Q3417005"
      },
      "geometry": {
        "type": "Point",
        "coordinates": [
          79.8031059,
          17.1688508
        ]
      },
      "id": "node/245639860"
    },
    {
      "type": "Feature",
      "properties": {
        "@id": "node/245639928",
        "name": "Kallur",
        "place": "village",
        "postal_code": "507209",
        "wikidata": "Q3765326"
      },
      "geometry": {
        "type": "Point",
        "coordinates": [
          80.5473275,
          17.2001667
        ]
      },
      "id": "node/245639928"
    },
    {
      "type": "Feature",
      "properties": {
        "@id": "node/245640017",
        "name": "Gangaram",
        "place": "village"
      },
      "geometry": {
        "type": "Point",
        "coordinates": [
          80.8976805,
          17.1995684
        ]
      },
      "id": "node/245640017"
    },
    {
      "type": "Feature",
      "properties": {
        "@id": "node/245640121",
        "name": "Shamshabad",
        "name:ml": "ഷംഷാബാദ്",
        "name:te": "శంషాబాద్",
        "place": "village",
        "population": "5000",
        "postal_code": "509218",
        "wikidata": "Q11105829"
      },
      "geometry": {
        "type": "Point",
        "coordinates": [
          78.3931943,
          17.2611444
        ]
      },
      "id": "node/245640121"
    },
    {
      "type": "Feature",
      "properties": {
        "@id": "node/245640191",
        "name": "Ramannapeta",
        "name:ml": "രാമണ്ണപേട്ട",
        "name:te": "రామన్నపేట",
        "place": "village",
        "population": "1000",
        "postal_code": "508113",
        "source": "AND, Bing",
        "wikidata": "Q3415103",
        "wikipedia": "en:Ramannapeta"
      },
      "geometry": {
        "type": "Point",
        "coordinates": [
          79.091519,
          17.2872144
        ]
      },
      "id": "node/245640191"
    },
    {
      "type": "Feature",
      "properties": {
        "@id": "node/245640251",
        "name": "Ibrahimpatnam",
        "name:te": "ఇబ్రహీంపట్నం",
        "place": "village",
        "population": "1000",
        "postal_code": "501506",
        "source": "US Army Map Service (1955)",
        "wikidata": "Q5984843"
      },
      "geometry": {
        "type": "Point",
        "coordinates": [
          78.6508564,
          17.1952924
        ]
      },
      "id": "node/245640251"
    },
    {
      "type": "Feature",
      "properties": {
        "@id": "node/245640512",
        "name": "Kotepalli",
        "name:kn": "ಕೋಟೆಪಳ್ಳಿ",
        "place": "village",
        "postal_code": "501106"
      },
      "geometry": {
        "type": "Point",
        "coordinates": [
          77.7447533,
          17.3847039
        ]
      },
      "id": "node/245640512"
    },
    {
      "type": "Feature",
      "properties": {
        "@id": "node/245640522",
        "name": "Valigonda",
        "name:ml": "വലിഗൊണ്ട",
        "name:te": "వలిగొండ",
        "place": "village",
        "postal_code": "508112",
        "source": "AND, Bing",
        "wikidata": "Q3416830"
      },
      "geometry": {
        "type": "Point",
        "coordinates": [
          79.0209072,
          17.3772563
        ]
      },
      "id": "node/245640522"
    },
    {
      "type": "Feature",
      "properties": {
        "@id": "node/245640733",
        "name": "Dornakal",
        "name:te": "డోర్నకల్",
        "place": "village",
        "postal_code": "506381",
        "wikidata": "Q26789867"
      },
      "geometry": {
        "type": "Point",
        "coordinates": [
          80.1516156,
          17.4419208
        ]
      },
      "id": "node/245640733"
    },
    {
      "type": "Feature",
      "properties": {
        "@id": "node/245640759",
        "name": "Shankarpalli",
        "name:te": "శంకర్పల్లె",
        "place": "village",
        "postal_code": "502201",
        "wikidata": "Q3430303"
      },
      "geometry": {
        "type": "Point",
        "coordinates": [
          78.1320742,
          17.4531904
        ]
      },
      "id": "node/245640759"
    },
    {
      "type": "Feature",
      "properties": {
        "@id": "node/245640763",
        "name": "Motkur",
        "place": "village",
        "postal_code": "508277",
        "wikidata": "Q3430317"
      },
      "geometry": {
        "type": "Point",
        "coordinates": [
          79.2608742,
          17.4596746
        ]
      },
      "id": "node/245640763"
    },
    {
      "type": "Feature",
      "properties": {
        "@id": "node/245641012",
        "name": "Kammareddigudam",
        "name:te": "కామారెడ్డి గూడెం",
        "place": "village"
      },
      "geometry": {
        "type": "Point",
        "coordinates": [
          79.3551731,
          17.5327545
        ]
      },
      "id": "node/245641012"
    },
    {
      "type": "Feature",
      "properties": {
        "@id": "node/245641025",
        "name": "Rayagiri",
        "name:ml": "രായഗിരി",
        "name:te": "రాయగిరి",
        "place": "village",
        "wikidata": "Q7283835"
      },
      "geometry": {
        "type": "Point",
        "coordinates": [
          78.938931,
          17.5348989
        ]
      },
      "id": "node/245641025"
    },
    {
      "type": "Feature",
      "properties": {
        "@id": "node/245641028",
        "name": "Marpalli",
        "place": "village",
        "population": "1000",
        "postal_code": "501203"
      },
      "geometry": {
        "type": "Point",
        "coordinates": [
          77.7690138,
          17.5391381
        ]
      },
      "id": "node/245641028"
    },
    {
      "type": "Feature",
      "properties": {
        "@id": "node/245641149",
        "name": "Bayyaram",
        "place": "village",
        "postal_code": "507211",
        "wikidata": "Q4875043",
        "wikipedia": "te:బయ్యారం (మహబూబాబాద్ జిల్లా)"
      },
      "geometry": {
        "type": "Point",
        "coordinates": [
          80.106679,
          17.5758073
        ]
      },
      "id": "node/245641149"
    },
    {
      "type": "Feature",
      "properties": {
        "@id": "node/245641410",
        "name": "Kesamudram",
        "name:ml": "കേസമുദ്രം",
        "name:te": "కేసముద్రం",
        "place": "village",
        "postal_code": "506112",
        "wikidata": "Q6394847"
      },
      "geometry": {
        "type": "Point",
        "coordinates": [
          79.8971365,
          17.6903072
        ]
      },
      "id": "node/245641410"
    },
    {
      "type": "Feature",
      "properties": {
        "@id": "node/245641510",
        "name": "Digwal",
        "place": "village",
        "postal_code": "502321"
      },
      "geometry": {
        "type": "Point",
        "coordinates": [
          77.7105684,
          17.6631684
        ]
      },
      "id": "node/245641510"
    },
    {
      "type": "Feature",
      "properties": {
        "@id": "node/245641766",
        "name": "Komararam",
        "name:te": "కొమరారం",
        "place": "village"
      },
      "geometry": {
        "type": "Point",
        "coordinates": [
          80.3193803,
          17.7110823
        ]
      },
      "id": "node/245641766"
    },
    {
      "type": "Feature",
      "properties": {
        "@id": "node/245641770",
        "name": "Gollagudem",
        "place": "village",
        "wikidata": "Q5580812"
      },
      "geometry": {
        "type": "Point",
        "coordinates": [
          80.6201428,
          17.702624
        ]
      },
      "id": "node/245641770"
    },
    {
      "type": "Feature",
      "properties": {
        "@id": "node/245641897",
        "name": "Narsapur",
        "name:te": "నర్సాపూర్",
        "place": "village",
        "population": "10000",
        "postal_code": "502313",
        "wikidata": "Q3422551"
      },
      "geometry": {
        "type": "Point",
        "coordinates": [
          78.279637,
          17.7384006
        ]
      },
      "id": "node/245641897"
    },
    {
      "type": "Feature",
      "properties": {
        "@id": "node/245642096",
        "name": "Gudur",
        "place": "village",
        "postal_code": "506134"
      },
      "geometry": {
        "type": "Point",
        "coordinates": [
          79.9788493,
          17.7988349
        ]
      },
      "id": "node/245642096"
    },
    {
      "type": "Feature",
      "properties": {
        "@id": "node/245642128",
        "name": "Raghunathpally",
        "name:te": "రఘునాథపల్లీ",
        "place": "village",
        "postal_code": "506244"
      },
      "geometry": {
        "type": "Point",
        "coordinates": [
          79.2584395,
          17.7607238
        ]
      },
      "id": "node/245642128"
    },
    {
      "type": "Feature",
      "properties": {
        "@id": "node/245642220",
        "name": "Andole",
        "place": "village",
        "population": "1000",
        "postal_code": "502273",
        "wikidata": "Q26791813"
      },
      "geometry": {
        "type": "Point",
        "coordinates": [
          78.0751839,
          17.8150925
        ]
      },
      "id": "node/245642220"
    },
    {
      "type": "Feature",
      "properties": {
        "@id": "node/245642290",
        "name": "Jogipet",
        "place": "village",
        "postal_code": "502270",
        "wikidata": "Q6214813"
      },
      "geometry": {
        "type": "Point",
        "coordinates": [
          78.0731499,
          17.8368269
        ]
      },
      "id": "node/245642290"
    },
    {
      "type": "Feature",
      "properties": {
        "@id": "node/245642316",
        "AND_a_nosr_p": "10006248",
        "name": "Kowdipalle",
        "place": "village",
        "postal_code": "502316",
        "wikidata": "Q28172773",
        "wikipedia": "en:Kowdipalle"
      },
      "geometry": {
        "type": "Point",
        "coordinates": [
          78.2064706,
          17.9005108
        ]
      },
      "id": "node/245642316"
    },
    {
      "type": "Feature",
      "properties": {
        "@id": "node/245642330",
        "name": "Panthini",
        "name:te": "పంతిని",
        "place": "village",
        "postal_code": "506310",
        "wikidata": "Q16258137"
      },
      "geometry": {
        "type": "Point",
        "coordinates": [
          79.6032107,
          17.8456002
        ]
      },
      "id": "node/245642330"
    },
    {
      "type": "Feature",
      "properties": {
        "@id": "node/245642425",
        "AND_a_nosr_p": "10006259",
        "name": "Masaipet",
        "place": "village",
        "postal_code": "502335",
        "source": "AND, Bing"
      },
      "geometry": {
        "type": "Point",
        "coordinates": [
          78.4633969,
          17.9068482
        ]
      },
      "id": "node/245642425"
    },
    {
      "type": "Feature",
      "properties": {
        "@id": "node/245642515",
        "name": "Ashoknagar",
        "place": "village",
        "postal_code": "506133"
      },
      "geometry": {
        "type": "Point",
        "coordinates": [
          79.9494249,
          17.9524589
        ]
      },
      "id": "node/245642515"
    },
    {
      "type": "Feature",
      "properties": {
        "@id": "node/245642531",
        "name": "Cherial",
        "name:hi": "Cheryal",
        "place": "village",
        "postal_code": "506223"
      },
      "geometry": {
        "type": "Point",
        "coordinates": [
          78.9690304,
          17.9239547
        ]
      },
      "id": "node/245642531"
    },
    {
      "type": "Feature",
      "properties": {
        "@id": "node/245642670",
        "name": "Allahdurg",
        "place": "village",
        "postal_code": "502269",
        "wikidata": "Q13564655"
      },
      "geometry": {
        "type": "Point",
        "coordinates": [
          77.9277174,
          17.9640634
        ]
      },
      "id": "node/245642670"
    },
    {
      "type": "Feature",
      "properties": {
        "@id": "node/245642932",
        "name": "Shankarampet",
        "place": "village",
        "postal_code": "502271"
      },
      "geometry": {
        "type": "Point",
        "coordinates": [
          77.913361,
          18.0495442
        ]
      },
      "id": "node/245642932"
    },
    {
      "type": "Feature",
      "properties": {
        "@id": "node/245642970",
        "name": "Katapuram",
        "place": "village",
        "source": "bing"
      },
      "geometry": {
        "type": "Point",
        "coordinates": [
          80.3975853,
          18.1631252
        ]
      },
      "id": "node/245642970"
    },
    {
      "type": "Feature",
      "properties": {
        "@id": "node/245643110",
        "name": "Bheemadeverapalli",
        "place": "village",
        "postal_code": "505471"
      },
      "geometry": {
        "type": "Point",
        "coordinates": [
          79.3641724,
          18.1001836
        ]
      },
      "id": "node/245643110"
    },
    {
      "type": "Feature",
      "properties": {
        "@id": "node/245643131",
        "name": "Nizampet",
        "place": "village"
      },
      "geometry": {
        "type": "Point",
        "coordinates": [
          77.8815974,
          18.0920331
        ]
      },
      "id": "node/245643131"
    },
    {
      "type": "Feature",
      "properties": {
        "@id": "node/245643270",
        "name": "Mallampali",
        "place": "village",
        "postal_code": "506349"
      },
      "geometry": {
        "type": "Point",
        "coordinates": [
          79.8512452,
          18.1125866
        ]
      },
      "id": "node/245643270"
    },
    {
      "type": "Feature",
      "properties": {
        "@id": "node/245643360",
        "name": "Husnabad",
        "name:te": "హుస్నాబాద్",
        "place": "village",
        "postal_code": "505467",
        "wikidata": "Q10971349"
      },
      "geometry": {
        "type": "Point",
        "coordinates": [
          79.2111468,
          18.1266495
        ]
      },
      "id": "node/245643360"
    },
    {
      "type": "Feature",
      "properties": {
        "@id": "node/245643626",
        "name": "Bhiknoor",
        "place": "village",
        "postal_code": "503101"
      },
      "geometry": {
        "type": "Point",
        "coordinates": [
          78.39952,
          18.1883539
        ]
      },
      "id": "node/245643626"
    },
    {
      "type": "Feature",
      "properties": {
        "@id": "node/245643705",
        "name": "Sanigaram",
        "place": "village"
      },
      "geometry": {
        "type": "Point",
        "coordinates": [
          79.0166599,
          18.1944611
        ]
      },
      "id": "node/245643705"
    },
    {
      "type": "Feature",
      "properties": {
        "@id": "node/245643762",
        "name": "Kangiti",
        "name:kn": "ಕಂಗಿಟಿ",
        "name:te": "కంగిటి",
        "place": "village",
        "wikidata": "Q3416983"
      },
      "geometry": {
        "type": "Point",
        "coordinates": [
          77.6179093,
          18.2247943
        ]
      },
      "id": "node/245643762"
    },
    {
      "type": "Feature",
      "properties": {
        "@id": "node/245643807",
        "name": "Pitlam",
        "place": "village",
        "population": "5000",
        "postal_code": "503310",
        "wikidata": "Q7198984"
      },
      "geometry": {
        "type": "Point",
        "coordinates": [
          77.8239617,
          18.2232522
        ]
      },
      "id": "node/245643807"
    },
    {
      "type": "Feature",
      "properties": {
        "@id": "node/245643901",
        "name": "Venkatapuram",
        "place": "village",
        "population": "1000",
        "postal_code": "507136",
        "wikidata": "Q16346607"
      },
      "geometry": {
        "type": "Point",
        "coordinates": [
          80.5489974,
          18.3043854
        ]
      },
      "id": "node/245643901"
    },
    {
      "type": "Feature",
      "properties": {
        "@id": "node/245643915",
        "name": "Domkonda",
        "place": "village",
        "postal_code": "503123",
        "source": "AND, Bing"
      },
      "geometry": {
        "type": "Point",
        "coordinates": [
          78.4367073,
          18.2520872
        ]
      },
      "id": "node/245643915"
    },
    {
      "type": "Feature",
      "properties": {
        "@id": "node/245644064",
        "name": "Lingampet",
        "place": "village",
        "postal_code": "503124",
        "wikidata": "Q6553761"
      },
      "geometry": {
        "type": "Point",
        "coordinates": [
          78.1299316,
          18.2396917
        ]
      },
      "id": "node/245644064"
    },
    {
      "type": "Feature",
      "properties": {
        "@id": "node/245644298",
        "name": "Tadikal",
        "name:te": "తడికల్",
        "place": "village",
        "postal_code": "505474"
      },
      "geometry": {
        "type": "Point",
        "coordinates": [
          79.2895818,
          18.3120673
        ]
      },
      "id": "node/245644298"
    },
    {
      "type": "Feature",
      "properties": {
        "@id": "node/245644339",
        "name": "Adavi Rangapur",
        "place": "village"
      },
      "geometry": {
        "type": "Point",
        "coordinates": [
          79.9648552,
          18.3519467
        ]
      },
      "id": "node/245644339"
    },
    {
      "type": "Feature",
      "properties": {
        "@id": "node/245644738",
        "name": "Manakondur",
        "place": "village",
        "postal_code": "505469",
        "wikidata": "Q10997065"
      },
      "geometry": {
        "type": "Point",
        "coordinates": [
          79.1859734,
          18.4013037
        ]
      },
      "id": "node/245644738"
    },
    {
      "type": "Feature",
      "properties": {
        "@id": "node/245644777",
        "name": "Gorlaveedu",
        "place": "village"
      },
      "geometry": {
        "type": "Point",
        "coordinates": [
          79.7842476,
          18.411117
        ]
      },
      "id": "node/245644777"
    },
    {
      "type": "Feature",
      "properties": {
        "@id": "node/245645558",
        "alt_name": "Madnoor",
        "name": "Madnur",
        "place": "village",
        "postal_code": "503309",
        "wikidata": "Q6728317"
      },
      "geometry": {
        "type": "Point",
        "coordinates": [
          77.6251363,
          18.5021779
        ]
      },
      "id": "node/245645558"
    },
    {
      "type": "Feature",
      "properties": {
        "@id": "node/245645825",
        "name": "Kottapalli",
        "place": "village",
        "postal_code": "505451",
        "wikidata": "Q12994384"
      },
      "geometry": {
        "type": "Point",
        "coordinates": [
          79.0947986,
          18.4894877
        ]
      },
      "id": "node/245645825"
    },
    {
      "type": "Feature",
      "properties": {
        "@id": "node/245649905",
        "name": "Rudrangi",
        "place": "village",
        "postal_code": "505307"
      },
      "geometry": {
        "type": "Point",
        "coordinates": [
          78.7026701,
          18.6260498
        ]
      },
      "id": "node/245649905"
    },
    {
      "type": "Feature",
      "properties": {
        "@id": "node/245650056",
        "name": "Manthani",
        "place": "village",
        "postal_code": "505184",
        "wikidata": "Q6752062"
      },
      "geometry": {
        "type": "Point",
        "coordinates": [
          79.665771,
          18.6512469
        ]
      },
      "id": "node/245650056"
    },
    {
      "type": "Feature",
      "properties": {
        "@id": "node/245652335",
        "name": "Kotilingala",
        "place": "village",
        "wikidata": "Q6434046"
      },
      "geometry": {
        "type": "Point",
        "coordinates": [
          79.1973924,
          18.8621281
        ]
      },
      "id": "node/245652335"
    },
    {
      "type": "Feature",
      "properties": {
        "@id": "node/245652557",
        "name": "Lakshettipet",
        "place": "village",
        "postal_code": "504215",
        "wikidata": "Q6706382"
      },
      "geometry": {
        "type": "Point",
        "coordinates": [
          79.2060607,
          18.8923573
        ]
      },
      "id": "node/245652557"
    },
    {
      "type": "Feature",
      "properties": {
        "@id": "node/245661245",
        "alt_name": "Suvarnapuri",
        "name": "Suvarnapuri",
        "name:en": "Soan",
        "place": "village",
        "postal_code": "504105"
      },
      "geometry": {
        "type": "Point",
        "coordinates": [
          78.3821066,
          19.0094191
        ]
      },
      "id": "node/245661245"
    },
    {
      "type": "Feature",
      "properties": {
        "@id": "node/245665258",
        "name": "Khanapur",
        "place": "village",
        "population": "1000",
        "postal_code": "504203"
      },
      "geometry": {
        "type": "Point",
        "coordinates": [
          78.6447209,
          19.0442198
        ]
      },
      "id": "node/245665258"
    },
    {
      "type": "Feature",
      "properties": {
        "@id": "node/245668592",
        "name": "Mamda",
        "place": "village",
        "postal_code": "504310",
        "wikidata": "Q976202"
      },
      "geometry": {
        "type": "Point",
        "coordinates": [
          78.5220385,
          19.0773973
        ]
      },
      "id": "node/245668592"
    },
    {
      "type": "Feature",
      "properties": {
        "@id": "node/245672146",
        "name": "Kaddam",
        "place": "village"
      },
      "geometry": {
        "type": "Point",
        "coordinates": [
          78.7800368,
          19.0991812
        ]
      },
      "id": "node/245672146"
    },
    {
      "type": "Feature",
      "properties": {
        "@id": "node/245676180",
        "name": "Pembi",
        "place": "village"
      },
      "geometry": {
        "type": "Point",
        "coordinates": [
          78.6369723,
          19.195437
        ]
      },
      "id": "node/245676180"
    },
    {
      "type": "Feature",
      "properties": {
        "@id": "node/245678773",
        "name": "Tandur",
        "name:ja": "タンドゥール",
        "name:te": "తాండూరు",
        "place": "village",
        "postal_code": "504272"
      },
      "geometry": {
        "type": "Point",
        "coordinates": [
          79.4488599,
          19.1519551
        ]
      },
      "id": "node/245678773"
    },
    {
      "type": "Feature",
      "properties": {
        "@id": "node/538974325",
        "name": "Guvvalagudem",
        "place": "village"
      },
      "geometry": {
        "type": "Point",
        "coordinates": [
          80.0636603,
          17.1411682
        ]
      },
      "id": "node/538974325"
    },
    {
      "type": "Feature",
      "properties": {
        "@id": "node/571122171",
        "name": "Naginenprolu",
        "place": "village"
      },
      "geometry": {
        "type": "Point",
        "coordinates": [
          80.8586459,
          17.6712974
        ]
      },
      "id": "node/571122171"
    },
    {
      "type": "Feature",
      "properties": {
        "@id": "node/571170940",
        "alt_name:ur": "میڈچل",
        "name": "Medchal",
        "name:te": "మేడ్చల్",
        "name:ur": "میڑچل",
        "place": "village",
        "postal_code": "501400",
        "wikidata": "Q3430279"
      },
      "geometry": {
        "type": "Point",
        "coordinates": [
          78.4843146,
          17.6339929
        ]
      },
      "id": "node/571170940"
    },
    {
      "type": "Feature",
      "properties": {
        "@id": "node/571352343",
        "name": "Kandi",
        "name:te": "కంది",
        "place": "village",
        "postal_code": "502285"
      },
      "geometry": {
        "type": "Point",
        "coordinates": [
          78.1084523,
          17.5812658
        ]
      },
      "id": "node/571352343"
    },
    {
      "type": "Feature",
      "properties": {
        "@id": "node/571358646",
        "name": "Malkapur",
        "name:te": "మల్కాపుర్",
        "place": "village",
        "wikidata": "Q6743866"
      },
      "geometry": {
        "type": "Point",
        "coordinates": [
          78.7969242,
          17.2745973
        ]
      },
      "id": "node/571358646"
    },
    {
      "type": "Feature",
      "properties": {
        "@id": "node/571542093",
        "name": "Vijayapuri North",
        "name:te": "విజయపురి (ఉత్తర)",
        "place": "village",
        "postal_code": "508203",
        "wikidata": "Q2046416",
        "wikipedia": "en:Vijayapuri (North)"
      },
      "geometry": {
        "type": "Point",
        "coordinates": [
          79.3207113,
          16.5857016
        ]
      },
      "id": "node/571542093"
    },
    {
      "type": "Feature",
      "properties": {
        "@id": "node/571542096",
        "name": "Hill Colony",
        "name:te": "హిల్ కాలనీ",
        "place": "village",
        "postal_code": "508202"
      },
      "geometry": {
        "type": "Point",
        "coordinates": [
          79.3035951,
          16.6076981
        ]
      },
      "id": "node/571542096"
    },
    {
      "type": "Feature",
      "properties": {
        "@id": "node/571542101",
        "name": "Ippalapalle",
        "place": "village"
      },
      "geometry": {
        "type": "Point",
        "coordinates": [
          79.0722447,
          16.3541681
        ]
      },
      "id": "node/571542101"
    },
    {
      "type": "Feature",
      "properties": {
        "@id": "node/571542104",
        "name": "Amrabad",
        "place": "village",
        "postal_code": "509200",
        "wikidata": "Q4748609"
      },
      "geometry": {
        "type": "Point",
        "coordinates": [
          78.833257,
          16.3767064
        ]
      },
      "id": "node/571542104"
    },
    {
      "type": "Feature",
      "properties": {
        "@id": "node/603465593",
        "name": "Dharoor",
        "name:te": "ధరూర్",
        "place": "village",
        "postal_code": "509133"
      },
      "geometry": {
        "type": "Point",
        "coordinates": [
          77.6954571,
          16.2335964
        ]
      },
      "id": "node/603465593"
    },
    {
      "type": "Feature",
      "properties": {
        "@id": "node/637242551",
        "amenity": "Mandal",
        "name": "Damarcherla",
        "place": "village"
      },
      "geometry": {
        "type": "Point",
        "coordinates": [
          79.6386779,
          16.7275063
        ]
      },
      "id": "node/637242551"
    },
    {
      "type": "Feature",
      "properties": {
        "@id": "node/660146124",
        "is_in": "Telangana",
        "name": "Gorelli",
        "name:te": "గౌరెల్లి",
        "place": "village"
      },
      "geometry": {
        "type": "Point",
        "coordinates": [
          78.6713836,
          17.3749112
        ]
      },
      "id": "node/660146124"
    },
    {
      "type": "Feature",
      "properties": {
        "@id": "node/660551588",
        "name": "Bandaravirala",
        "name:te": "బండరావిరాల్",
        "place": "village"
      },
      "geometry": {
        "type": "Point",
        "coordinates": [
          78.7191314,
          17.3896517
        ]
      },
      "id": "node/660551588"
    },
    {
      "type": "Feature",
      "properties": {
        "@id": "node/660552232",
        "name": "Pillai Palle",
        "name:te": "పిళ్ళైపల్లి",
        "place": "village"
      },
      "geometry": {
        "type": "Point",
        "coordinates": [
          78.7382716,
          17.3749896
        ]
      },
      "id": "node/660552232"
    },
    {
      "type": "Feature",
      "properties": {
        "@id": "node/660553458",
        "is_in": "Andhra Pradesh",
        "name": "Ankral",
        "place": "village",
        "source": "US Army Map Service (1955)"
      },
      "geometry": {
        "type": "Point",
        "coordinates": [
          78.7625617,
          17.4114379
        ]
      },
      "id": "node/660553458"
    },
    {
      "type": "Feature",
      "properties": {
        "@id": "node/662734738",
        "is_in": "Andhra Pradesh",
        "name": "Aushapur",
        "name:te": "ఔషాపూర్",
        "place": "village",
        "source": "US Army Map Service (1955)",
        "wikidata": "Q4822753"
      },
      "geometry": {
        "type": "Point",
        "coordinates": [
          78.737024,
          17.4597656
        ]
      },
      "id": "node/662734738"
    },
    {
      "type": "Feature",
      "properties": {
        "@id": "node/678484005",
        "name": "Chilkuru",
        "place": "village",
        "postal_code": "508230"
      },
      "geometry": {
        "type": "Point",
        "coordinates": [
          79.9147924,
          16.9602438
        ]
      },
      "id": "node/678484005"
    },
    {
      "type": "Feature",
      "properties": {
        "@id": "node/764883727",
        "addr:city": "khammam",
        "name": "Gollagudem",
        "name:te": "గొల్లగూడెం",
        "place": "village",
        "population": "5320"
      },
      "geometry": {
        "type": "Point",
        "coordinates": [
          80.1832288,
          17.2311533
        ]
      },
      "id": "node/764883727"
    },
    {
      "type": "Feature",
      "properties": {
        "@id": "node/764982378",
        "name": "Gokinepally",
        "place": "village",
        "population": "3663"
      },
      "geometry": {
        "type": "Point",
        "coordinates": [
          80.0669215,
          17.1488537
        ]
      },
      "id": "node/764982378"
    },
    {
      "type": "Feature",
      "properties": {
        "@id": "node/772790318",
        "name": "Pandurangapuram",
        "place": "village"
      },
      "geometry": {
        "type": "Point",
        "coordinates": [
          80.1789023,
          17.2735779
        ]
      },
      "id": "node/772790318"
    },
    {
      "type": "Feature",
      "properties": {
        "@id": "node/773130245",
        "name": "Atmakur",
        "place": "village",
        "postal_code": "506342",
        "wikidata": "Q4817049"
      },
      "geometry": {
        "type": "Point",
        "coordinates": [
          79.7356789,
          18.0716548
        ]
      },
      "id": "node/773130245"
    },
    {
      "type": "Feature",
      "properties": {
        "@id": "node/773160564",
        "name": "Ramannapeta",
        "name:te": "రామన్నపేట",
        "place": "village"
      },
      "geometry": {
        "type": "Point",
        "coordinates": [
          80.1475974,
          17.295602
        ]
      },
      "id": "node/773160564"
    },
    {
      "type": "Feature",
      "properties": {
        "@id": "node/773160565",
        "addr:city": "khammam",
        "name": "Danvaigudem",
        "name:te": "డాన్వాయుగూడెం",
        "place": "village"
      },
      "geometry": {
        "type": "Point",
        "coordinates": [
          80.1407397,
          17.2826753
        ]
      },
      "id": "node/773160565"
    },
    {
      "type": "Feature",
      "properties": {
        "@id": "node/773160568",
        "addr:city": "khammam",
        "name": "Tekulapally",
        "place": "village"
      },
      "geometry": {
        "type": "Point",
        "coordinates": [
          80.176254,
          17.2504601
        ]
      },
      "id": "node/773160568"
    },
    {
      "type": "Feature",
      "properties": {
        "@id": "node/773199920",
        "addr:city": "khammam",
        "name": "Nayudupet",
        "place": "village"
      },
      "geometry": {
        "type": "Point",
        "coordinates": [
          80.1209304,
          17.2532999
        ]
      },
      "id": "node/773199920"
    },
    {
      "type": "Feature",
      "properties": {
        "@id": "node/773199921",
        "addr:city": "khammam",
        "name": "Jelagam Nagar",
        "place": "village"
      },
      "geometry": {
        "type": "Point",
        "coordinates": [
          80.1226012,
          17.2483481
        ]
      },
      "id": "node/773199921"
    },
    {
      "type": "Feature",
      "properties": {
        "@id": "node/781951269",
        "name": "Chirunomula",
        "name:te": "చిరునోముల",
        "place": "village",
        "wikidata": "Q5102027"
      },
      "geometry": {
        "type": "Point",
        "coordinates": [
          80.2446201,
          17.0233765
        ]
      },
      "id": "node/781951269"
    },
    {
      "type": "Feature",
      "properties": {
        "@id": "node/791076595",
        "is_in": "khammam",
        "name": "Timminenipalem",
        "place": "village"
      },
      "geometry": {
        "type": "Point",
        "coordinates": [
          80.1704591,
          17.072748
        ]
      },
      "id": "node/791076595"
    },
    {
      "type": "Feature",
      "properties": {
        "@id": "node/791252937",
        "name": "Dhamsalapuram",
        "name:te": "ధంసలాపురం",
        "place": "village"
      },
      "geometry": {
        "type": "Point",
        "coordinates": [
          80.1574679,
          17.196283
        ]
      },
      "id": "node/791252937"
    },
    {
      "type": "Feature",
      "properties": {
        "@id": "node/791252959",
        "name": "Mushtikunta",
        "place": "village"
      },
      "geometry": {
        "type": "Point",
        "coordinates": [
          80.2309763,
          17.0435523
        ]
      },
      "id": "node/791252959"
    },
    {
      "type": "Feature",
      "properties": {
        "@id": "node/791252962",
        "name": "Jagannadhapuram",
        "place": "village"
      },
      "geometry": {
        "type": "Point",
        "coordinates": [
          80.1914089,
          17.1245633
        ]
      },
      "id": "node/791252962"
    },
    {
      "type": "Feature",
      "properties": {
        "@id": "node/791293185",
        "name": "Tirumulapuram",
        "place": "village"
      },
      "geometry": {
        "type": "Point",
        "coordinates": [
          80.1965111,
          17.093816
        ]
      },
      "id": "node/791293185"
    },
    {
      "type": "Feature",
      "properties": {
        "@id": "node/807356834",
        "addr:district": "Khammam",
        "addr:postcode": "507157",
        "name": "Paleru",
        "place": "village",
        "wikidata": "Q111169485",
        "wikipedia": "en:Palair, Khammam"
      },
      "geometry": {
        "type": "Point",
        "coordinates": [
          79.9237101,
          17.2074228
        ]
      },
      "id": "node/807356834"
    },
    {
      "type": "Feature",
      "properties": {
        "@id": "node/824332896",
        "name": "Agraharam gate",
        "place": "village"
      },
      "geometry": {
        "type": "Point",
        "coordinates": [
          80.1534095,
          17.2062936
        ]
      },
      "id": "node/824332896"
    },
    {
      "type": "Feature",
      "properties": {
        "@id": "node/824332913",
        "name": "Sitarampuram",
        "place": "village"
      },
      "geometry": {
        "type": "Point",
        "coordinates": [
          80.1529295,
          17.204805
        ]
      },
      "id": "node/824332913"
    },
    {
      "type": "Feature",
      "properties": {
        "@id": "node/981868945",
        "is_in": "Hayat Nagar",
        "name": "Kuntloor",
        "name:te": "కుంట్లూర్",
        "place": "village"
      },
      "geometry": {
        "type": "Point",
        "coordinates": [
          78.6276055,
          17.3410735
        ]
      },
      "id": "node/981868945"
    },
    {
      "type": "Feature",
      "properties": {
        "@id": "node/999145948",
        "is_in": "Khammam",
        "name": "Ramakrishnapuram",
        "place": "village"
      },
      "geometry": {
        "type": "Point",
        "coordinates": [
          80.1757758,
          17.179646
        ]
      },
      "id": "node/999145948"
    },
    {
      "type": "Feature",
      "properties": {
        "@id": "node/1077112993",
        "name": "Mudigonda",
        "place": "village",
        "wikidata": "Q3430076"
      },
      "geometry": {
        "type": "Point",
        "coordinates": [
          80.0920033,
          17.1820184
        ]
      },
      "id": "node/1077112993"
    },
    {
      "type": "Feature",
      "properties": {
        "@id": "node/1077125673",
        "name": "Lakshmipuram",
        "name:te": "లక్ష్మీపురం",
        "place": "village"
      },
      "geometry": {
        "type": "Point",
        "coordinates": [
          80.1210248,
          17.1704611
        ]
      },
      "id": "node/1077125673"
    },
    {
      "type": "Feature",
      "properties": {
        "@id": "node/1077125677",
        "name": "Venkatagiri",
        "place": "village"
      },
      "geometry": {
        "type": "Point",
        "coordinates": [
          80.1221406,
          17.1981359
        ]
      },
      "id": "node/1077125677"
    },
    {
      "type": "Feature",
      "properties": {
        "@id": "node/1080599357",
        "is_in": "Khammam",
        "name": "Baswapuram",
        "place": "village"
      },
      "geometry": {
        "type": "Point",
        "coordinates": [
          80.1925593,
          17.1853324
        ]
      },
      "id": "node/1080599357"
    },
    {
      "type": "Feature",
      "properties": {
        "@id": "node/1080599380",
        "is_in": "Chintakani",
        "name": "Allipuram",
        "place": "village"
      },
      "geometry": {
        "type": "Point",
        "coordinates": [
          80.1896089,
          17.203156
        ]
      },
      "id": "node/1080599380"
    },
    {
      "type": "Feature",
      "properties": {
        "@id": "node/1080610067",
        "is_in": "Khammam",
        "name": "Kothagudem",
        "place": "village"
      },
      "geometry": {
        "type": "Point",
        "coordinates": [
          80.1682156,
          17.2176321
        ]
      },
      "id": "node/1080610067"
    },
    {
      "type": "Feature",
      "properties": {
        "@id": "node/1083681116",
        "is_in": "Khammam",
        "name": "Gumpellagudem",
        "place": "village"
      },
      "geometry": {
        "type": "Point",
        "coordinates": [
          80.2384077,
          17.5409167
        ]
      },
      "id": "node/1083681116"
    },
    {
      "type": "Feature",
      "properties": {
        "@id": "node/1083682709",
        "is_in": "Khammam",
        "name": "Perepally",
        "place": "village"
      },
      "geometry": {
        "type": "Point",
        "coordinates": [
          80.2601229,
          17.5366405
        ]
      },
      "id": "node/1083682709"
    },
    {
      "type": "Feature",
      "properties": {
        "@id": "node/1087811777",
        "is_in": "Khammam",
        "name:en": "Reddipally",
        "name:te": "రెడ్డిపల్లి",
        "place": "village"
      },
      "geometry": {
        "type": "Point",
        "coordinates": [
          80.1082286,
          17.2791433
        ]
      },
      "id": "node/1087811777"
    },
    {
      "type": "Feature",
      "properties": {
        "@id": "node/1113780822",
        "name": "Chalki",
        "name:kn": "ಚಾಲ್ಕಿ",
        "place": "village"
      },
      "geometry": {
        "type": "Point",
        "coordinates": [
          77.6766074,
          17.9135026
        ]
      },
      "id": "node/1113780822"
    },
    {
      "type": "Feature",
      "properties": {
        "@id": "node/1113781629",
        "name": "Dappur",
        "place": "village"
      },
      "geometry": {
        "type": "Point",
        "coordinates": [
          77.6238416,
          17.8676898
        ]
      },
      "id": "node/1113781629"
    },
    {
      "type": "Feature",
      "properties": {
        "@id": "node/1113782565",
        "name": "Ratnapura",
        "name:kn": "ರತ್ನಪೂರ",
        "name:kn:iso15919": "Ratnapūra",
        "name:te": "రత్నపురం",
        "place": "village"
      },
      "geometry": {
        "type": "Point",
        "coordinates": [
          77.6277299,
          17.8986603
        ]
      },
      "id": "node/1113782565"
    },
    {
      "type": "Feature",
      "properties": {
        "@id": "node/1201410729",
        "name": "Areakodu Thanda",
        "place": "village"
      },
      "geometry": {
        "type": "Point",
        "coordinates": [
          80.0654647,
          17.3219617
        ]
      },
      "id": "node/1201410729"
    },
    {
      "type": "Feature",
      "properties": {
        "@id": "node/1201410734",
        "name": "Gopalraopeta",
        "place": "village"
      },
      "geometry": {
        "type": "Point",
        "coordinates": [
          80.0308545,
          17.2343942
        ]
      },
      "id": "node/1201410734"
    },
    {
      "type": "Feature",
      "properties": {
        "@id": "node/1201410743",
        "name": "Thallampadu",
        "place": "village"
      },
      "geometry": {
        "type": "Point",
        "coordinates": [
          80.0502952,
          17.2268501
        ]
      },
      "id": "node/1201410743"
    },
    {
      "type": "Feature",
      "properties": {
        "@id": "node/1201410749",
        "name": "Keshavapuram",
        "place": "village"
      },
      "geometry": {
        "type": "Point",
        "coordinates": [
          79.9964793,
          17.235214
        ]
      },
      "id": "node/1201410749"
    },
    {
      "type": "Feature",
      "properties": {
        "@id": "node/1201410751",
        "name": "Jeelacheruvu",
        "place": "village"
      },
      "geometry": {
        "type": "Point",
        "coordinates": [
          80.0096544,
          17.2348861
        ]
      },
      "id": "node/1201410751"
    },
    {
      "type": "Feature",
      "properties": {
        "@id": "node/1201410761",
        "name": "Maddulapalli",
        "name:te": "మద్దులపల్లి",
        "place": "village"
      },
      "geometry": {
        "type": "Point",
        "coordinates": [
          80.0776527,
          17.2381005
        ]
      },
      "id": "node/1201410761"
    },
    {
      "type": "Feature",
      "properties": {
        "@id": "node/1201413368",
        "name": "Ponnekallu",
        "name:te": "పొన్నేకల్లు",
        "place": "village"
      },
      "geometry": {
        "type": "Point",
        "coordinates": [
          80.066323,
          17.2443306
        ]
      },
      "id": "node/1201413368"
    },
    {
      "type": "Feature",
      "properties": {
        "@id": "node/1202836909",
        "name": "Edulapuram",
        "name:te": "ఏదులాపురం",
        "place": "village"
      },
      "geometry": {
        "type": "Point",
        "coordinates": [
          80.1015753,
          17.2634079
        ]
      },
      "id": "node/1202836909"
    },
    {
      "type": "Feature",
      "properties": {
        "@id": "node/1202897641",
        "name": "Gurralapadu",
        "name:te": "గుర్రాలపాడు",
        "place": "village"
      },
      "geometry": {
        "type": "Point",
        "coordinates": [
          80.1035494,
          17.2342479
        ]
      },
      "id": "node/1202897641"
    },
    {
      "type": "Feature",
      "properties": {
        "@id": "node/1287707040",
        "name": "Suvarnapuram",
        "name:te": "సువర్ణపురం",
        "place": "village"
      },
      "geometry": {
        "type": "Point",
        "coordinates": [
          80.109259,
          17.1622924
        ]
      },
      "id": "node/1287707040"
    },
    {
      "type": "Feature",
      "properties": {
        "@id": "node/1291368180",
        "name": "Chakrampally",
        "place": "village"
      },
      "geometry": {
        "type": "Point",
        "coordinates": [
          77.9918055,
          17.4956313
        ]
      },
      "id": "node/1291368180"
    },
    {
      "type": "Feature",
      "properties": {
        "@id": "node/1304491809",
        "name": "Kodumuru",
        "name:te": "కొదుమూరు",
        "place": "village"
      },
      "geometry": {
        "type": "Point",
        "coordinates": [
          80.2180254,
          17.1917592
        ]
      },
      "id": "node/1304491809"
    },
    {
      "type": "Feature",
      "properties": {
        "@id": "node/1356310778",
        "name": "Tirumalayapalem",
        "name:te": "తిరుమలాయపాలెం",
        "place": "village",
        "wikidata": "Q3418968"
      },
      "geometry": {
        "type": "Point",
        "coordinates": [
          80.0354546,
          17.3100806
        ]
      },
      "id": "node/1356310778"
    },
    {
      "type": "Feature",
      "properties": {
        "@id": "node/1356343679",
        "name": "Kokkireni",
        "name:te": "కొక్కిరేణి",
        "place": "village"
      },
      "geometry": {
        "type": "Point",
        "coordinates": [
          80.0303376,
          17.2939182
        ]
      },
      "id": "node/1356343679"
    },
    {
      "type": "Feature",
      "properties": {
        "@id": "node/1366359484",
        "name": "Ramavaram",
        "place": "village"
      },
      "geometry": {
        "type": "Point",
        "coordinates": [
          80.6320193,
          17.5220064
        ]
      },
      "id": "node/1366359484"
    },
    {
      "type": "Feature",
      "properties": {
        "@id": "node/1420974661",
        "name": "Jaipur",
        "place": "village",
        "postal_code": "504216",
        "wikidata": "Q25247424",
        "wikipedia": "en:Jaipur, Mancherial district"
      },
      "geometry": {
        "type": "Point",
        "coordinates": [
          79.5856465,
          18.8464525
        ]
      },
      "id": "node/1420974661"
    },
    {
      "type": "Feature",
      "properties": {
        "@id": "node/1420974663",
        "name": "Bhimaram",
        "place": "village"
      },
      "geometry": {
        "type": "Point",
        "coordinates": [
          79.6753889,
          18.8488193
        ]
      },
      "id": "node/1420974663"
    },
    {
      "type": "Feature",
      "properties": {
        "@id": "node/1454981902",
        "name": "Godavari Khani",
        "place": "village",
        "wikidata": "Q5576202",
        "wikipedia": "en:Godavarikhani"
      },
      "geometry": {
        "type": "Point",
        "coordinates": [
          79.5046501,
          18.7641843
        ]
      },
      "id": "node/1454981902"
    },
    {
      "type": "Feature",
      "properties": {
        "@id": "node/1486892423",
        "name": "Raghunadapalam",
        "name:te": "రఘునాధపాలెం",
        "place": "village"
      },
      "geometry": {
        "type": "Point",
        "coordinates": [
          80.2027109,
          17.2907108
        ]
      },
      "id": "node/1486892423"
    },
    {
      "type": "Feature",
      "properties": {
        "@id": "node/1492152126",
        "name": "Janampeta",
        "name:te": "జానంపేట",
        "place": "village",
        "wikidata": "Q19359251"
      },
      "geometry": {
        "type": "Point",
        "coordinates": [
          80.6903962,
          18.092402
        ]
      },
      "id": "node/1492152126"
    },
    {
      "type": "Feature",
      "properties": {
        "@id": "node/1492152128",
        "name": "Malluru",
        "place": "village"
      },
      "geometry": {
        "type": "Point",
        "coordinates": [
          80.558785,
          18.219451
        ]
      },
      "id": "node/1492152128"
    },
    {
      "type": "Feature",
      "properties": {
        "@id": "node/1492157775",
        "name": "Devadula",
        "place": "village"
      },
      "geometry": {
        "type": "Point",
        "coordinates": [
          80.3703978,
          18.5682834
        ]
      },
      "id": "node/1492157775"
    },
    {
      "type": "Feature",
      "properties": {
        "@id": "node/1492157777",
        "name": "Muppanapally",
        "place": "village"
      },
      "geometry": {
        "type": "Point",
        "coordinates": [
          80.3473316,
          18.5007592
        ]
      },
      "id": "node/1492157777"
    },
    {
      "type": "Feature",
      "properties": {
        "@id": "node/1492157779",
        "name": "Wazedu",
        "place": "village",
        "wikidata": "Q61607649"
      },
      "geometry": {
        "type": "Point",
        "coordinates": [
          80.4762953,
          18.440755
        ]
      },
      "id": "node/1492157779"
    },
    {
      "type": "Feature",
      "properties": {
        "@id": "node/1492167055",
        "name": "Tupakulagudem",
        "place": "village"
      },
      "geometry": {
        "type": "Point",
        "coordinates": [
          80.3772151,
          18.564255
        ]
      },
      "id": "node/1492167055"
    },
    {
      "type": "Feature",
      "properties": {
        "@id": "node/1515778606",
        "name": "Gudupalli",
        "place": "village"
      },
      "geometry": {
        "type": "Point",
        "coordinates": [
          77.4730338,
          17.619413
        ]
      },
      "id": "node/1515778606"
    },
    {
      "type": "Feature",
      "properties": {
        "@id": "node/1528753896",
        "addr:postcode": "507209",
        "name": "Lingala",
        "place": "village",
        "population": "2000",
        "wikidata": "Q13008876",
        "wikipedia": "te:లింగాల (కల్లూరు)"
      },
      "geometry": {
        "type": "Point",
        "coordinates": [
          80.5130664,
          17.1552154
        ]
      },
      "id": "node/1528753896"
    },
    {
      "type": "Feature",
      "properties": {
        "@id": "node/1529854492",
        "name": "Satwara",
        "name:kn": "ಸತ್ವರ",
        "name:te": "సత్వర్",
        "place": "village"
      },
      "geometry": {
        "type": "Point",
        "coordinates": [
          77.5224335,
          17.706671
        ]
      },
      "id": "node/1529854492"
    },
    {
      "type": "Feature",
      "properties": {
        "@id": "node/1530102290",
        "name": "Jadi Malkapur",
        "name:kn": "ಜದಿ ಮಲ್ಕಾಪೂರ",
        "name:te": "జది మల్కాపూర్",
        "place": "village"
      },
      "geometry": {
        "type": "Point",
        "coordinates": [
          77.5743456,
          17.573372
        ]
      },
      "id": "node/1530102290"
    },
    {
      "type": "Feature",
      "properties": {
        "@id": "node/1543927013",
        "name": "Parsapalli",
        "name:kn": "ಪರ್ಸಪಲ್ಲಿ",
        "place": "village"
      },
      "geometry": {
        "type": "Point",
        "coordinates": [
          77.6427769,
          17.5839033
        ]
      },
      "id": "node/1543927013"
    },
    {
      "type": "Feature",
      "properties": {
        "@id": "node/1543927031",
        "name:en": "Maniyarpalli",
        "name:kn": "ಮನಿಯಾರ್‌ಪಲ್ಲಿ",
        "name:te": "మనియార్‌పల్లి",
        "place": "village"
      },
      "geometry": {
        "type": "Point",
        "coordinates": [
          77.6639256,
          17.5287587
        ]
      },
      "id": "node/1543927031"
    },
    {
      "type": "Feature",
      "properties": {
        "@id": "node/1543927037",
        "name": "Venkatapur",
        "name:kn": "ವೆಂಕಟಾಪೂರ",
        "name:te": "వెంకటాపూర్",
        "place": "village"
      },
      "geometry": {
        "type": "Point",
        "coordinates": [
          77.7549317,
          17.6354394
        ]
      },
      "id": "node/1543927037"
    },
    {
      "type": "Feature",
      "properties": {
        "@id": "node/1544906686",
        "name": "Rudraram",
        "name:kn": "ರುದ್ರಾರಂ",
        "name:te": "రుద్రారం",
        "place": "village"
      },
      "geometry": {
        "type": "Point",
        "coordinates": [
          77.5104125,
          17.1337308
        ]
      },
      "id": "node/1544906686"
    },
    {
      "type": "Feature",
      "properties": {
        "@id": "node/1552597340",
        "name": "Krishna",
        "name:kn": "ಕೃಷ್ಣಾ",
        "name:te": "కృష్ణా",
        "place": "village"
      },
      "geometry": {
        "type": "Point",
        "coordinates": [
          77.330529,
          16.4100225
        ]
      },
      "id": "node/1552597340"
    },
    {
      "type": "Feature",
      "properties": {
        "@id": "node/1598943295",
        "name": "Antaram",
        "name:kn": "ಅಂತವಾರ",
        "name:te": "అంతారం",
        "place": "village"
      },
      "geometry": {
        "type": "Point",
        "coordinates": [
          77.5023864,
          16.9552032
        ]
      },
      "id": "node/1598943295"
    },
    {
      "type": "Feature",
      "properties": {
        "@id": "node/1598943296",
        "name": "Bichchala",
        "name:kn": "ಬಿಚ್ಚಾಲ",
        "name:te": "బిచ్చాల",
        "place": "village"
      },
      "geometry": {
        "type": "Point",
        "coordinates": [
          77.5000685,
          16.9875291
        ]
      },
      "id": "node/1598943296"
    },
    {
      "type": "Feature",
      "properties": {
        "@id": "node/1609005108",
        "name": "Malkapura",
        "name:kn": "ಮಲ್ಕಾಪೂರ",
        "name:te": "మల్కాపూర",
        "place": "village"
      },
      "geometry": {
        "type": "Point",
        "coordinates": [
          77.5863645,
          17.7585585
        ]
      },
      "id": "node/1609005108"
    },
    {
      "type": "Feature",
      "properties": {
        "@id": "node/1611089126",
        "name": "Shamirpet",
        "name:te": "శామీర్ పేట్",
        "people": "2000",
        "place": "village",
        "population": "2000",
        "wikidata": "Q3415143"
      },
      "geometry": {
        "type": "Point",
        "coordinates": [
          78.5743878,
          17.5942672
        ]
      },
      "id": "node/1611089126"
    },
    {
      "type": "Feature",
      "properties": {
        "@id": "node/1611089140",
        "name": "Thumukunta",
        "name:te": "తూముకుంట",
        "people": "2000",
        "place": "village",
        "population": "2000"
      },
      "geometry": {
        "type": "Point",
        "coordinates": [
          78.5545036,
          17.5649983
        ]
      },
      "id": "node/1611089140"
    },
    {
      "type": "Feature",
      "properties": {
        "@id": "node/1673557791",
        "name": "Kuchipudi",
        "place": "village"
      },
      "geometry": {
        "type": "Point",
        "coordinates": [
          79.9992585,
          16.9058797
        ]
      },
      "id": "node/1673557791"
    },
    {
      "type": "Feature",
      "properties": {
        "@id": "node/1739954071",
        "name": "Polepalli",
        "place": "village",
        "wikidata": "Q7209305"
      },
      "geometry": {
        "type": "Point",
        "coordinates": [
          80.1190191,
          17.2990796
        ]
      },
      "id": "node/1739954071"
    },
    {
      "type": "Feature",
      "properties": {
        "@id": "node/1739954078",
        "name": "Gollapadu",
        "place": "village"
      },
      "geometry": {
        "type": "Point",
        "coordinates": [
          80.1194483,
          17.3031964
        ]
      },
      "id": "node/1739954078"
    },
    {
      "type": "Feature",
      "properties": {
        "@id": "node/1751090944",
        "name": "Aakupamula",
        "name:te": "ఆకుపాముల",
        "place": "village"
      },
      "geometry": {
        "type": "Point",
        "coordinates": [
          79.9032677,
          17.0104164
        ]
      },
      "id": "node/1751090944"
    },
    {
      "type": "Feature",
      "properties": {
        "@id": "node/1752471099",
        "name": "Vandanam",
        "name:te": "వందనం",
        "place": "village"
      },
      "geometry": {
        "type": "Point",
        "coordinates": [
          80.2232611,
          17.2030945
        ]
      },
      "id": "node/1752471099"
    },
    {
      "type": "Feature",
      "properties": {
        "@id": "node/1752471102",
        "name": "Puttakota",
        "name:te": "పుట్టకోట",
        "place": "village"
      },
      "geometry": {
        "type": "Point",
        "coordinates": [
          80.2002102,
          17.2196119
        ]
      },
      "id": "node/1752471102"
    },
    {
      "type": "Feature",
      "properties": {
        "@id": "node/1752471131",
        "name": "Chinagopathi",
        "name:te": "చినగోపతి",
        "place": "village"
      },
      "geometry": {
        "type": "Point",
        "coordinates": [
          80.2510048,
          17.1984835
        ]
      },
      "id": "node/1752471131"
    },
    {
      "type": "Feature",
      "properties": {
        "@id": "node/1752475304",
        "name": "Botlakunta",
        "name:te": "బొట్లకుంట",
        "place": "village"
      },
      "geometry": {
        "type": "Point",
        "coordinates": [
          80.2772701,
          17.1902615
        ]
      },
      "id": "node/1752475304"
    },
    {
      "type": "Feature",
      "properties": {
        "@id": "node/1752475349",
        "name": "Gopavaram",
        "name:te": "గోపవరం",
        "place": "village"
      },
      "geometry": {
        "type": "Point",
        "coordinates": [
          80.2982128,
          17.1877206
        ]
      },
      "id": "node/1752475349"
    },
    {
      "type": "Feature",
      "properties": {
        "@id": "node/1752476268",
        "name": "Peddamunagala",
        "name:te": "పెద్దమునగాల",
        "place": "village"
      },
      "geometry": {
        "type": "Point",
        "coordinates": [
          80.2955306,
          17.1681416
        ]
      },
      "id": "node/1752476268"
    },
    {
      "type": "Feature",
      "properties": {
        "@id": "node/1783485194",
        "name": "Asupaka",
        "place": "village"
      },
      "geometry": {
        "type": "Point",
        "coordinates": [
          81.1123496,
          17.3878907
        ]
      },
      "id": "node/1783485194"
    },
    {
      "type": "Feature",
      "properties": {
        "@id": "node/1783485202",
        "name": "Ashwaraopet",
        "place": "village",
        "population": "5000",
        "postal_code": "507300"
      },
      "geometry": {
        "type": "Point",
        "coordinates": [
          81.1281746,
          17.2409387
        ]
      },
      "id": "node/1783485202"
    },
    {
      "type": "Feature",
      "properties": {
        "@id": "node/1802658888",
        "name": "Miryal",
        "place": "village",
        "postal_code": "508121"
      },
      "geometry": {
        "type": "Point",
        "coordinates": [
          79.7329388,
          17.34116
        ]
      },
      "id": "node/1802658888"
    },
    {
      "type": "Feature",
      "properties": {
        "@id": "node/1803362799",
        "name": "Atmakur",
        "place": "village",
        "postal_code": "508111"
      },
      "geometry": {
        "type": "Point",
        "coordinates": [
          79.6958156,
          17.2334484
        ]
      },
      "id": "node/1803362799"
    },
    {
      "type": "Feature",
      "properties": {
        "@id": "node/1815483761",
        "name": "Chinna Gudur",
        "place": "village"
      },
      "geometry": {
        "type": "Point",
        "coordinates": [
          79.8802351,
          17.5059994
        ]
      },
      "id": "node/1815483761"
    },
    {
      "type": "Feature",
      "properties": {
        "@id": "node/1818669458",
        "name": "Teldarupalli",
        "name:te": "తెల్దారుపల్లి",
        "place": "village"
      },
      "geometry": {
        "type": "Point",
        "coordinates": [
          80.0840285,
          17.2264956
        ]
      },
      "id": "node/1818669458"
    },
    {
      "type": "Feature",
      "properties": {
        "@id": "node/1818675893",
        "name": "Lokyathanda",
        "name:te": "లోక్యాతండ",
        "place": "village"
      },
      "geometry": {
        "type": "Point",
        "coordinates": [
          79.9855092,
          17.2176058
        ]
      },
      "id": "node/1818675893"
    },
    {
      "type": "Feature",
      "properties": {
        "@id": "node/1822505380",
        "name": "Dendukuru",
        "name:te": "దెందుకూరు",
        "place": "village"
      },
      "geometry": {
        "type": "Point",
        "coordinates": [
          80.4005782,
          16.8891784
        ]
      },
      "id": "node/1822505380"
    },
    {
      "type": "Feature",
      "properties": {
        "@id": "node/1822505390",
        "name": "Nidhanapuram",
        "place": "village"
      },
      "geometry": {
        "type": "Point",
        "coordinates": [
          80.4194763,
          16.9202097
        ]
      },
      "id": "node/1822505390"
    },
    {
      "type": "Feature",
      "properties": {
        "@id": "node/1823661253",
        "name": "Kotha Pocharam",
        "name:te": "కొత్తపోచారం",
        "place": "village"
      },
      "geometry": {
        "type": "Point",
        "coordinates": [
          80.2034359,
          17.4816002
        ]
      },
      "id": "node/1823661253"
    },
    {
      "type": "Feature",
      "properties": {
        "@id": "node/1823661375",
        "name": "Patha Pocharam",
        "name:te": "పాతపోచారం",
        "place": "village"
      },
      "geometry": {
        "type": "Point",
        "coordinates": [
          80.2107691,
          17.4862361
        ]
      },
      "id": "node/1823661375"
    },
    {
      "type": "Feature",
      "properties": {
        "@id": "node/1828416165",
        "name": "Kamalapuram",
        "place": "village",
        "wikidata": "Q2673715"
      },
      "geometry": {
        "type": "Point",
        "coordinates": [
          80.4849764,
          18.2680934
        ]
      },
      "id": "node/1828416165"
    },
    {
      "type": "Feature",
      "properties": {
        "@id": "node/1828432114",
        "name": "Chinnaboinapally",
        "place": "village"
      },
      "geometry": {
        "type": "Point",
        "coordinates": [
          80.3975508,
          18.2899986
        ]
      },
      "id": "node/1828432114"
    },
    {
      "type": "Feature",
      "properties": {
        "@id": "node/1828534041",
        "name": "Chalwai",
        "place": "village"
      },
      "geometry": {
        "type": "Point",
        "coordinates": [
          80.1007234,
          18.2065034
        ]
      },
      "id": "node/1828534041"
    },
    {
      "type": "Feature",
      "properties": {
        "@id": "node/1829552132",
        "name": "Buggapadu",
        "place": "village"
      },
      "geometry": {
        "type": "Point",
        "coordinates": [
          80.8629591,
          17.2787664
        ]
      },
      "id": "node/1829552132"
    },
    {
      "type": "Feature",
      "properties": {
        "@id": "node/1832807807",
        "name": "Shivapur",
        "place": "village"
      },
      "geometry": {
        "type": "Point",
        "coordinates": [
          80.4079374,
          18.2851554
        ]
      },
      "id": "node/1832807807"
    },
    {
      "type": "Feature",
      "properties": {
        "@id": "node/1832807825",
        "name": "Gogupally",
        "name:te": "గోగుపల్లి",
        "place": "village"
      },
      "geometry": {
        "type": "Point",
        "coordinates": [
          80.4172071,
          18.2786455
        ]
      },
      "id": "node/1832807825"
    },
    {
      "type": "Feature",
      "properties": {
        "@id": "node/1833783879",
        "name": "Bodu",
        "place": "village"
      },
      "geometry": {
        "type": "Point",
        "coordinates": [
          80.440924,
          17.6764394
        ]
      },
      "id": "node/1833783879"
    },
    {
      "type": "Feature",
      "properties": {
        "@id": "node/1835138882",
        "name": "Payapur",
        "place": "village",
        "wikidata": "Q7156682"
      },
      "geometry": {
        "type": "Point",
        "coordinates": [
          80.5131396,
          17.1781823
        ]
      },
      "id": "node/1835138882"
    },
    {
      "type": "Feature",
      "properties": {
        "@id": "node/1835351686",
        "name": "Gannavaram",
        "place": "village"
      },
      "geometry": {
        "type": "Point",
        "coordinates": [
          80.3680236,
          17.0803614
        ]
      },
      "id": "node/1835351686"
    },
    {
      "type": "Feature",
      "properties": {
        "@id": "node/1846361261",
        "name": "Matedu",
        "name:te": "మతేడ్",
        "place": "village"
      },
      "geometry": {
        "type": "Point",
        "coordinates": [
          79.7040723,
          17.5454526
        ]
      },
      "id": "node/1846361261"
    },
    {
      "type": "Feature",
      "properties": {
        "@id": "node/1846361405",
        "name": "Dantapalli",
        "name:te": "దంతపల్లి",
        "place": "village"
      },
      "geometry": {
        "type": "Point",
        "coordinates": [
          79.7347675,
          17.519168
        ]
      },
      "id": "node/1846361405"
    },
    {
      "type": "Feature",
      "properties": {
        "@id": "node/1846361425",
        "name": "Polepalli",
        "name:te": "పోలేపల్లీ",
        "place": "village"
      },
      "geometry": {
        "type": "Point",
        "coordinates": [
          79.7084549,
          17.5539298
        ]
      },
      "id": "node/1846361425"
    },
    {
      "type": "Feature",
      "properties": {
        "@id": "node/1848415412",
        "name": "Dummagudem",
        "place": "village",
        "population": "3420",
        "postal_code": "507137",
        "wikidata": "Q3426011"
      },
      "geometry": {
        "type": "Point",
        "coordinates": [
          80.8846493,
          17.8510358
        ]
      },
      "id": "node/1848415412"
    },
    {
      "type": "Feature",
      "properties": {
        "@id": "node/1849834826",
        "name": "Morampalli Banjar",
        "place": "village"
      },
      "geometry": {
        "type": "Point",
        "coordinates": [
          80.8129082,
          17.6328674
        ]
      },
      "id": "node/1849834826"
    },
    {
      "type": "Feature",
      "properties": {
        "@id": "node/1852664357",
        "name": "Alubaka (G)",
        "place": "village",
        "population": "5000"
      },
      "geometry": {
        "type": "Point",
        "coordinates": [
          80.6710564,
          18.205339
        ]
      },
      "id": "node/1852664357"
    },
    {
      "type": "Feature",
      "properties": {
        "@id": "node/1852858763",
        "name": "Cherla(Z)",
        "place": "village",
        "postal_code": "507133",
        "wikidata": "Q3430068"
      },
      "geometry": {
        "type": "Point",
        "coordinates": [
          80.8276601,
          18.0740831
        ]
      },
      "id": "node/1852858763"
    },
    {
      "type": "Feature",
      "properties": {
        "@id": "node/1853823705",
        "name": "Akkaladevigudem",
        "name:te": "అక్కలదేవిగూడెం",
        "place": "village"
      },
      "geometry": {
        "type": "Point",
        "coordinates": [
          79.7112364,
          17.1571061
        ]
      },
      "id": "node/1853823705"
    },
    {
      "type": "Feature",
      "properties": {
        "@id": "node/1853839980",
        "name": "Chandrupatla",
        "place": "village"
      },
      "geometry": {
        "type": "Point",
        "coordinates": [
          79.7398474,
          17.1508889
        ]
      },
      "id": "node/1853839980"
    },
    {
      "type": "Feature",
      "properties": {
        "@id": "node/1853840009",
        "name": "Chivemla",
        "place": "village",
        "wikidata": "Q3418868"
      },
      "geometry": {
        "type": "Point",
        "coordinates": [
          79.6864283,
          17.1529571
        ]
      },
      "id": "node/1853840009"
    },
    {
      "type": "Feature",
      "properties": {
        "@id": "node/1853910855",
        "name": "Ravipahad",
        "place": "village"
      },
      "geometry": {
        "type": "Point",
        "coordinates": [
          79.7761481,
          17.2387864
        ]
      },
      "id": "node/1853910855"
    },
    {
      "type": "Feature",
      "properties": {
        "@id": "node/1853910862",
        "name": "Kotapahad",
        "name:te": "కోటపహాడ్",
        "place": "village",
        "wikidata": "Q6433866"
      },
      "geometry": {
        "type": "Point",
        "coordinates": [
          79.7620053,
          17.237767
        ]
      },
      "id": "node/1853910862"
    },
    {
      "type": "Feature",
      "properties": {
        "@id": "node/1855386241",
        "name": "Nagulavancha",
        "name:te": "నాగులవంచ",
        "place": "village"
      },
      "geometry": {
        "type": "Point",
        "coordinates": [
          80.2139976,
          17.0683181
        ]
      },
      "id": "node/1855386241"
    },
    {
      "type": "Feature",
      "properties": {
        "@id": "node/1864177758",
        "name": "Lokavaram",
        "place": "village"
      },
      "geometry": {
        "type": "Point",
        "coordinates": [
          80.507534,
          17.2357431
        ]
      },
      "id": "node/1864177758"
    },
    {
      "type": "Feature",
      "properties": {
        "@id": "node/1864193947",
        "name": "Annarugudem",
        "place": "village"
      },
      "geometry": {
        "type": "Point",
        "coordinates": [
          80.4323946,
          17.260114
        ]
      },
      "id": "node/1864193947"
    },
    {
      "type": "Feature",
      "properties": {
        "@id": "node/1864492694",
        "name": "Padamata Narasapuram",
        "place": "village"
      },
      "geometry": {
        "type": "Point",
        "coordinates": [
          80.5244795,
          17.4431286
        ]
      },
      "id": "node/1864492694"
    },
    {
      "type": "Feature",
      "properties": {
        "@id": "node/1869619985",
        "name": "Khanapuram",
        "name:te": "ఖానాపురం",
        "place": "village"
      },
      "geometry": {
        "type": "Point",
        "coordinates": [
          80.3630963,
          17.1033718
        ]
      },
      "id": "node/1869619985"
    },
    {
      "type": "Feature",
      "properties": {
        "@id": "node/1869619986",
        "name": "Kondakodima",
        "name:te": "కొండకొడిమ",
        "place": "village"
      },
      "geometry": {
        "type": "Point",
        "coordinates": [
          80.3577475,
          17.124889
        ]
      },
      "id": "node/1869619986"
    },
    {
      "type": "Feature",
      "properties": {
        "@id": "node/1903637446",
        "name": "Anathasagar",
        "name:te": "అనంతసాగర్",
        "place": "village"
      },
      "geometry": {
        "type": "Point",
        "coordinates": [
          80.188647,
          17.1544907
        ]
      },
      "id": "node/1903637446"
    },
    {
      "type": "Feature",
      "properties": {
        "@id": "node/1903638163",
        "name": "Pandillapalli",
        "name:te": "పందిళ్ళపల్లి",
        "place": "village"
      },
      "geometry": {
        "type": "Point",
        "coordinates": [
          80.1760121,
          17.1468801
        ]
      },
      "id": "node/1903638163"
    },
    {
      "type": "Feature",
      "properties": {
        "@id": "node/2070578562",
        "place": "village"
      },
      "geometry": {
        "type": "Point",
        "coordinates": [
          79.0357464,
          19.0401369
        ]
      },
      "id": "node/2070578562"
    },
    {
      "type": "Feature",
      "properties": {
        "@id": "node/2082932777",
        "name": "Lingala",
        "place": "village"
      },
      "geometry": {
        "type": "Point",
        "coordinates": [
          80.2402704,
          17.4176867
        ]
      },
      "id": "node/2082932777"
    },
    {
      "type": "Feature",
      "properties": {
        "@id": "node/2085368953",
        "name": "Dichpalle",
        "name:kn": "ಡಿಚ್‌ಪಲ್ಲಿ",
        "name:te": "డిచ్‌పల్లి",
        "place": "village",
        "postal_code": "503175",
        "wikidata": "Q5272539",
        "wikipedia": "en:Dichpalle"
      },
      "geometry": {
        "type": "Point",
        "coordinates": [
          78.1978238,
          18.6111809
        ]
      },
      "id": "node/2085368953"
    },
    {
      "type": "Feature",
      "properties": {
        "@id": "node/2121517914",
        "name": "Rejantal",
        "name:kn": "ರೇಜಂತಲ",
        "place": "village"
      },
      "geometry": {
        "type": "Point",
        "coordinates": [
          77.6100594,
          17.7663973
        ]
      },
      "id": "node/2121517914"
    },
    {
      "type": "Feature",
      "properties": {
        "@id": "node/2151447838",
        "name": "Chinna Mandava",
        "name:te": "చిన్నమండవ",
        "place": "village"
      },
      "geometry": {
        "type": "Point",
        "coordinates": [
          80.1775582,
          17.0296539
        ]
      },
      "id": "node/2151447838"
    },
    {
      "type": "Feature",
      "properties": {
        "@id": "node/2151447890",
        "name": "Seethampeta",
        "name:te": "సీతంపేట",
        "place": "village"
      },
      "geometry": {
        "type": "Point",
        "coordinates": [
          80.1919874,
          17.0580412
        ]
      },
      "id": "node/2151447890"
    },
    {
      "type": "Feature",
      "properties": {
        "@id": "node/2151792356",
        "name": "Thungathurthy",
        "place": "village",
        "postal_code": "508280"
      },
      "geometry": {
        "type": "Point",
        "coordinates": [
          79.5871429,
          17.4135938
        ]
      },
      "id": "node/2151792356"
    },
    {
      "type": "Feature",
      "properties": {
        "@id": "node/2151840055",
        "name": "Nuthankal",
        "place": "village"
      },
      "geometry": {
        "type": "Point",
        "coordinates": [
          79.6967444,
          17.32863
        ]
      },
      "id": "node/2151840055"
    },
    {
      "type": "Feature",
      "properties": {
        "@id": "node/2152614424",
        "name": "Sakhunaveedu",
        "name:te": "సఖూనవీడు",
        "place": "village"
      },
      "geometry": {
        "type": "Point",
        "coordinates": [
          80.4569313,
          16.8963126
        ]
      },
      "id": "node/2152614424"
    },
    {
      "type": "Feature",
      "properties": {
        "@id": "node/2152614427",
        "name": "Jamalapuram",
        "name:te": "జమలాపురం",
        "place": "village",
        "wikidata": "Q6127660"
      },
      "geometry": {
        "type": "Point",
        "coordinates": [
          80.5173926,
          16.8301646
        ]
      },
      "id": "node/2152614427"
    },
    {
      "type": "Feature",
      "properties": {
        "@id": "node/2152614432",
        "name": "Meenavolu",
        "name:te": "మీనవోలు",
        "place": "village"
      },
      "geometry": {
        "type": "Point",
        "coordinates": [
          80.4546836,
          16.8622531
        ]
      },
      "id": "node/2152614432"
    },
    {
      "type": "Feature",
      "properties": {
        "@id": "node/2152614433",
        "name": "Takkellapadu",
        "name:te": "తక్కెలపాడు",
        "place": "village"
      },
      "geometry": {
        "type": "Point",
        "coordinates": [
          80.4568991,
          16.8808724
        ]
      },
      "id": "node/2152614433"
    },
    {
      "type": "Feature",
      "properties": {
        "@id": "node/2153170642",
        "name": "Pedda Gopathi",
        "name:te": "పెద్దగోపర్తి",
        "place": "village"
      },
      "geometry": {
        "type": "Point",
        "coordinates": [
          80.2603314,
          17.1705822
        ]
      },
      "id": "node/2153170642"
    },
    {
      "type": "Feature",
      "properties": {
        "@id": "node/2153170650",
        "name": "Anantharam",
        "name:te": "అనంతారం",
        "place": "village"
      },
      "geometry": {
        "type": "Point",
        "coordinates": [
          80.2523271,
          17.1681112
        ]
      },
      "id": "node/2153170650"
    },
    {
      "type": "Feature",
      "properties": {
        "@id": "node/2153170655",
        "name": "Kondavanamala",
        "name:te": "కొండ వనమాల",
        "place": "village"
      },
      "geometry": {
        "type": "Point",
        "coordinates": [
          80.3230511,
          17.1438353
        ]
      },
      "id": "node/2153170655"
    },
    {
      "type": "Feature",
      "properties": {
        "@id": "node/2153170656",
        "name": "Somavaram",
        "name:te": "సోమవరం",
        "place": "village"
      },
      "geometry": {
        "type": "Point",
        "coordinates": [
          80.3512408,
          17.1679216
        ]
      },
      "id": "node/2153170656"
    },
    {
      "type": "Feature",
      "properties": {
        "@id": "node/2153170663",
        "alt_name": "Gollenapahad",
        "name": "Gollenapadu",
        "name:te": "గొల్లెనపాడు",
        "place": "village"
      },
      "geometry": {
        "type": "Point",
        "coordinates": [
          80.3153859,
          17.1080268
        ]
      },
      "id": "node/2153170663"
    },
    {
      "type": "Feature",
      "properties": {
        "@id": "node/2153170665",
        "name": "Patakachavaram",
        "name:te": "పాతకంచవరం",
        "place": "village"
      },
      "geometry": {
        "type": "Point",
        "coordinates": [
          80.3221611,
          17.1559995
        ]
      },
      "id": "node/2153170665"
    },
    {
      "type": "Feature",
      "properties": {
        "@id": "node/2153170667",
        "name": "Kothakachavaram",
        "name:te": "కొత్తకాచవరం",
        "place": "village"
      },
      "geometry": {
        "type": "Point",
        "coordinates": [
          80.32199,
          17.1415085
        ]
      },
      "id": "node/2153170667"
    },
    {
      "type": "Feature",
      "properties": {
        "@id": "node/2153170668",
        "name": "Tatipudi",
        "name:te": "తాటిపూడి",
        "place": "village",
        "wikidata": "Q7688147"
      },
      "geometry": {
        "type": "Point",
        "coordinates": [
          80.3394077,
          17.151494
        ]
      },
      "id": "node/2153170668"
    },
    {
      "type": "Feature",
      "properties": {
        "@id": "node/2153170674",
        "name": "Nagiligonda",
        "name:te": "నగిలిగొండ",
        "place": "village"
      },
      "geometry": {
        "type": "Point",
        "coordinates": [
          80.2781096,
          17.1269308
        ]
      },
      "id": "node/2153170674"
    },
    {
      "type": "Feature",
      "properties": {
        "@id": "node/2153170675",
        "name": "Asnagurthi",
        "name:te": "అస్నగుర్తి",
        "place": "village"
      },
      "geometry": {
        "type": "Point",
        "coordinates": [
          80.3184406,
          17.0974654
        ]
      },
      "id": "node/2153170675"
    },
    {
      "type": "Feature",
      "properties": {
        "@id": "node/2153170677",
        "name": "Chinna Munagala",
        "name:te": "చిన్నమునగాల",
        "place": "village"
      },
      "geometry": {
        "type": "Point",
        "coordinates": [
          80.3246234,
          17.1590186
        ]
      },
      "id": "node/2153170677"
    },
    {
      "type": "Feature",
      "properties": {
        "@id": "node/2153170679",
        "name": "Rebbavaram",
        "name:te": "రెబ్బవరం",
        "place": "village"
      },
      "geometry": {
        "type": "Point",
        "coordinates": [
          80.3379867,
          17.1173327
        ]
      },
      "id": "node/2153170679"
    },
    {
      "type": "Feature",
      "properties": {
        "@id": "node/2153170683",
        "name": "Komatlagudem",
        "name:te": "కోమట్లగూడెం",
        "place": "village"
      },
      "geometry": {
        "type": "Point",
        "coordinates": [
          80.2603523,
          17.1513299
        ]
      },
      "id": "node/2153170683"
    },
    {
      "type": "Feature",
      "properties": {
        "@id": "node/2153170689",
        "name": "Reddy Gudem",
        "name:te": "రెడ్డిగూడెం",
        "place": "village"
      },
      "geometry": {
        "type": "Point",
        "coordinates": [
          80.2932171,
          17.1551252
        ]
      },
      "id": "node/2153170689"
    },
    {
      "type": "Feature",
      "properties": {
        "@id": "node/2153170696",
        "name": "Thutikuntla",
        "name:te": "తూటికుంట్ల",
        "place": "village"
      },
      "geometry": {
        "type": "Point",
        "coordinates": [
          80.2849862,
          17.1056432
        ]
      },
      "id": "node/2153170696"
    },
    {
      "type": "Feature",
      "properties": {
        "@id": "node/2153170701",
        "name": "Gollapudi",
        "name:te": "గొల్లపూడి",
        "place": "village"
      },
      "geometry": {
        "type": "Point",
        "coordinates": [
          80.3406576,
          17.0999361
        ]
      },
      "id": "node/2153170701"
    },
    {
      "type": "Feature",
      "properties": {
        "@id": "node/2153170702",
        "name": "Jinkala Gudem",
        "name:te": "జింకలగూడెం",
        "place": "village"
      },
      "geometry": {
        "type": "Point",
        "coordinates": [
          80.3358833,
          17.1392633
        ]
      },
      "id": "node/2153170702"
    },
    {
      "type": "Feature",
      "properties": {
        "@id": "node/2153170704",
        "name": "Podduturu",
        "name:te": "పొద్దుటూరు",
        "place": "village"
      },
      "geometry": {
        "type": "Point",
        "coordinates": [
          80.2712002,
          17.1093357
        ]
      },
      "id": "node/2153170704"
    },
    {
      "type": "Feature",
      "properties": {
        "@id": "node/2153181304",
        "name": "Raghavapuram",
        "name:te": "రాఘవపూరం",
        "place": "village"
      },
      "geometry": {
        "type": "Point",
        "coordinates": [
          80.2133273,
          17.1844802
        ]
      },
      "id": "node/2153181304"
    },
    {
      "type": "Feature",
      "properties": {
        "@id": "node/2153262366",
        "name": "Dachapuram",
        "name:te": "దాచపురం",
        "place": "village",
        "wikidata": "Q19715995",
        "wikipedia": "en:Dachapuram"
      },
      "geometry": {
        "type": "Point",
        "coordinates": [
          80.3907707,
          17.0856558
        ]
      },
      "id": "node/2153262366"
    },
    {
      "type": "Feature",
      "properties": {
        "@id": "node/2153262369",
        "name": "Nerada",
        "name:te": "నేరడ",
        "place": "village"
      },
      "geometry": {
        "type": "Point",
        "coordinates": [
          80.2353313,
          17.1428108
        ]
      },
      "id": "node/2153262369"
    },
    {
      "type": "Feature",
      "properties": {
        "@id": "node/2153262372",
        "name": "Vippalamadaka",
        "name:te": "విప్పలమడక",
        "place": "village"
      },
      "geometry": {
        "type": "Point",
        "coordinates": [
          80.4040589,
          17.1222127
        ]
      },
      "id": "node/2153262372"
    },
    {
      "type": "Feature",
      "properties": {
        "@id": "node/2153262377",
        "name": "Garikapadu",
        "name:te": "గరికపాడు",
        "place": "village"
      },
      "geometry": {
        "type": "Point",
        "coordinates": [
          80.394794,
          17.1001465
        ]
      },
      "id": "node/2153262377"
    },
    {
      "type": "Feature",
      "properties": {
        "@id": "node/2153262387",
        "name": "Narapanenipalli",
        "name:te": "నరపనేనిపల్లి",
        "place": "village"
      },
      "geometry": {
        "type": "Point",
        "coordinates": [
          80.3926161,
          17.1345468
        ]
      },
      "id": "node/2153262387"
    },
    {
      "type": "Feature",
      "properties": {
        "@id": "node/2153262388",
        "name": "Ligannapeta",
        "name:te": "లింగన్నపేట",
        "place": "village"
      },
      "geometry": {
        "type": "Point",
        "coordinates": [
          80.4032596,
          17.1099029
        ]
      },
      "id": "node/2153262388"
    },
    {
      "type": "Feature",
      "properties": {
        "@id": "node/2153262393",
        "name": "Lakshmipuram",
        "name:te": "లక్ష్మీపురం",
        "place": "village"
      },
      "geometry": {
        "type": "Point",
        "coordinates": [
          80.3811791,
          17.1558916
        ]
      },
      "id": "node/2153262393"
    },
    {
      "type": "Feature",
      "properties": {
        "@id": "node/2153262399",
        "name": "Lachagudem",
        "name:te": "లచ్చగూడెం",
        "place": "village"
      },
      "geometry": {
        "type": "Point",
        "coordinates": [
          80.2178648,
          17.1563124
        ]
      },
      "id": "node/2153262399"
    },
    {
      "type": "Feature",
      "properties": {
        "@id": "node/2153262403",
        "name": "Gandagalapadu",
        "name:te": "గండగలపాడు",
        "place": "village"
      },
      "geometry": {
        "type": "Point",
        "coordinates": [
          80.3700426,
          17.1751741
        ]
      },
      "id": "node/2153262403"
    },
    {
      "type": "Feature",
      "properties": {
        "@id": "node/2153262408",
        "name": "Musalimadugu",
        "name:te": "ముసలిమడుగు",
        "place": "village"
      },
      "geometry": {
        "type": "Point",
        "coordinates": [
          80.3788724,
          17.1402169
        ]
      },
      "id": "node/2153262408"
    },